aqi,co,co_8hr,county,latitude,longitude,no,no2,nox,o3,o3_8hr,pm10,pm10_avg,pm2.5,pm2.5_avg,pollutant,publishtime,siteid,sitename,so2,so2_avg,status,wind_direc,wind_speed
49,0.22,0.1,基隆市,25.129167,121.760056,0.4,5,5.9,50,53,18,19,10,9.3,,2026/03/26 19:00:00,1,基隆,0.9,0,良好,81,1.4
44,0.24,0.1,新北市,25.06624,121.64081,1.1,12,13.8,39,47,16,22,10,9.8,,2026/03/26 19:00:00,2,汐止,0.8,0,良好,44,1.3
56,0.32,0.2,新北市,24.977222,121.537778,1.2,12,13.6,41,46,28,29,17,14.2,細懸浮微粒,2026/03/26 19:00:00,4,新店,1.5,1,普通,81,0.9
47,0.43,0.3,新北市,24.982528,121.451861,0.8,17,17.9,36,46,28,28,10,10.4,,2026/03/26 19:00:00,5,土城,0.9,0,良好,149,1
51,0.45,0.3,新北市,25.012972,121.458667,1.6,22,23.9,32,43,24,25,12,11.1,二氧化氮,2026/03/26 19:00:00,6,板橋,0.7,1,普通,136,1.1
61,0.32,0.2,新北市,25.037972,121.4325,1.1,14,15.6,41,48,35,40,14,11.8,懸浮微粒,2026/03/26 19:00:00,7,新莊,0.8,0,普通,87,1.8
45,0.39,0.2,新北市,25.06895,121.481028,1,14,15.4,43,49,23,25,9,11.2,,2026/03/26 19:00:00,8,菜寮,0.7,0,良好,108,2
48,0.32,0.2,新北市,25.07798949,121.36548982,2,13,15.6,39,45,24,29,8,9.7,,2026/03/26 19:00:00,9,林口,1.8,2,良好,122,1.5
72,0.21,0.1,新北市,25.1645,121.449239,0.2,7,8,43,48,28,50,10,13.2,懸浮微粒,2026/03/26 19:00:00,10,淡水,2.1,1,普通,,
48,0.27,0.2,臺北市,25.10334003,121.51666356,0.9,11,12.6,41,49,22,29,18,10.7,,2026/03/26 19:00:00,11,士林,4.1,1,良好,159,1.2
52,0.46,0.3,臺北市,25.062361,121.526528,2.9,23,26.6,33,40,30,32,12,12.4,懸浮微粒,2026/03/26 19:00:00,12,中山,0.9,0,普通,106,2.1
50,0.36,0.2,臺北市,25.046503,121.507972,1.8,21,23.4,34,43,27,23,9,9.9,,2026/03/26 19:00:00,13,萬華,1.8,1,良好,86,1.6
47,0.34,0.2,臺北市,25.020608,121.529556,0.8,18,19.7,35,44,23,28,5,8.9,,2026/03/26 19:00:00,14,古亭,1.3,1,良好,63,0.9
48,0.26,0.2,臺北市,25.05,121.578611,2.1,18,20.5,36,42,30,29,10,11.2,,2026/03/26 19:00:00,15,松山,2,1,良好,42,1.9
57,0.67,0.4,臺北市,25.06331455,121.51342074,12.8,32,45.6,26,33,27,24,10,10.4,二氧化氮,2026/03/26 19:00:00,16,大同,1.5,1,普通,-,-
47,0.41,0.3,桃園市,24.9947107,121.30500531,0.7,18,19.5,36,46,31,28,12,11.2,,2026/03/26 19:00:00,17,桃園,0.7,0,良好,66,1.7
58,0.17,0.2,桃園市,25.06100357,121.20251473,1.4,9,11.3,48,51,22,31,10,15.2,細懸浮微粒,2026/03/26 19:00:00,18,大園,1.1,1,普通,35,3.4
61,0.16,0.1,桃園市,25.03556747,121.08283092,0.4,4,4.5,57,58,25,30,15,11.4,臭氧八小時,2026/03/26 19:00:00,19,觀音,1,1,普通,51,3.7
57,0.52,0.3,桃園市,24.952786,121.203986,2.1,24,26.9,28,45,38,33,15,14.6,細懸浮微粒,2026/03/26 19:00:00,20,平鎮,0.8,0,普通,72,0.6
61,0.38,0.3,桃園市,24.86400048,121.21645772,2,26,28,28,43,34,35,14,16.3,細懸浮微粒,2026/03/26 19:00:00,21,龍潭,0.5,0,普通,111,1.3
64,0.18,0.2,新竹縣,24.90009696,121.03886894,0.3,6,6.4,49,59,33,34,14,12.3,臭氧八小時,2026/03/26 19:00:00,22,湖口,1.5,1,普通,10,1.5
71,0.27,0.2,新竹縣,24.74091408,121.08895493,1,14,15.6,42,61,37,33,14,15.9,臭氧八小時,2026/03/26 19:00:00,23,竹東,1.6,1,普通,212,1.3
71,0.25,0.2,新竹市,24.8056356,120.97236752,1.2,9,10.3,49,61,32,37,11,13,臭氧八小時,2026/03/26 19:00:00,24,新竹,1.3,1,普通,347,0.4
59,0.24,0.2,苗栗縣,24.69690679,120.89869286,1.3,7,8.4,50,56,35,38,9,11.9,懸浮微粒,2026/03/26 19:00:00,25,頭份,1.1,1,普通,24,1.6
87,0.17,0.2,苗栗縣,24.56499183,120.82011468,0.8,5,6,56,66,27,29,7,11.1,臭氧八小時,2026/03/26 19:00:00,26,苗栗,1.7,2,普通,4,2.3
104,0.19,0.2,苗栗縣,24.38248443,120.75956754,1,3,4.6,57,72,31,39,11,16.6,臭氧八小時,2026/03/26 19:00:00,27,三義,1.4,1,對敏感族群不健康,19,2.3
104,0.26,0.3,臺中市,24.25699731,120.74252414,0.4,12,12.8,52,72,35,41,15,20.1,臭氧八小時,2026/03/26 19:00:00,28,豐原,1.4,1,對敏感族群不健康,293,1.5
97,0.16,0.2,臺中市,24.225628,120.568794,0.3,5,5.3,57,69,42,44,11,16.8,臭氧八小時,2026/03/26 19:00:00,29,沙鹿,0.4,1,普通,13,4.2
74,0.36,0.3,臺中市,24.09961111,120.67844444,0.2,11,11.9,46,62,42,46,18,20.1,臭氧八小時,2026/03/26 19:00:00,30,大里,1.4,1,普通,334,1.3
80,0.28,0.3,臺中市,24.151958,120.641092,0.9,10,11.9,48,64,38,44,12,17.7,臭氧八小時,2026/03/26 19:00:00,31,忠明,1.1,1,普通,15,1.5
90,0.2,0.2,臺中市,24.162197,120.616917,1.2,12,13.5,49,67,36,43,8,15.5,臭氧八小時,2026/03/26 19:00:00,32,西屯,1.3,1,普通,33,2.2
84,0.26,0.3,彰化縣,24.066,120.541519,1.1,8,9.3,53,65,34,41,11,16.9,臭氧八小時,2026/03/26 19:00:00,33,彰化,0.5,1,普通,21,1.9
90,0.18,0.2,彰化縣,24.131672,120.469061,1.1,7,8.6,57,67,37,41,11,16,臭氧八小時,2026/03/26 19:00:00,34,線西,1.9,3,普通,40,3.8
104,0.28,0.2,彰化縣,23.925175,120.409653,0.5,5,6.4,54,67,56,83,12,21.7,懸浮微粒,2026/03/26 19:00:00,35,二林,1.5,2,對敏感族群不健康,12,1.9
87,0.3,0.3,南投縣,23.913,120.685306,0.8,14,15.4,51,66,34,40,15,21.5,臭氧八小時,2026/03/26 19:00:00,36,南投,0.9,0,普通,28,1.2
97,0.28,0.3,雲林縣,23.711853,120.544994,0.1,10,10.7,52,69,47,53,19,23.4,臭氧八小時,2026/03/26 19:00:00,37,斗六,1.9,1,普通,334,1.3
90,0.2,0.2,雲林縣,23.757547,120.348742,0.9,3,4.8,51,67,52,53,16,20.9,臭氧八小時,2026/03/26 19:00:00,38,崙背,1,2,普通,56,1.2
80,0.18,0.2,嘉義縣,23.554839,120.345531,1.2,3,5.1,53,62,39,57,13,22.9,懸浮微粒,2026/03/26 19:00:00,39,新港,1.2,2,普通,333,2.2
93,0.23,0.2,嘉義縣,23.46538,120.2478,0.9,5,6.5,52,63,55,55,29,28,細懸浮微粒,2026/03/26 19:00:00,40,朴子,1.9,1,普通,17,1.2
93,0.2,0.2,雲林縣,23.702175,120.19933333,0.4,3,4.2,55,68,47,40,21,16,臭氧八小時,2026/03/26 19:00:00,41,臺西,1.5,1,普通,20,2.7
81,0.28,0.2,嘉義市,23.46477865,120.44125148,0.7,8,9.5,46,57,46,49,19,23.5,細懸浮微粒,2026/03/26 19:00:00,42,嘉義,1.5,2,普通,4,2.7
71,0.21,0.2,臺南市,23.305633,120.31725,2,5,7.5,51,60,42,49,12,18.7,懸浮微粒,2026/03/26 19:00:00,43,新營,0.7,1,普通,5,2.6
71,0.25,0.2,臺南市,23.11337642,120.29740529,1.8,4,6.5,51,61,60,40,29,19.2,臭氧八小時,2026/03/26 19:00:00,44,善化,1.1,1,普通,0,4.3
74,0.28,0.3,臺南市,23.048197,120.2175,1.1,5,7,52,62,53,52,20,19.7,臭氧八小時,2026/03/26 19:00:00,45,安南,1,1,普通,332,2.5
65,0.28,,臺南市,22.98928311,120.21947897,0.9,6,7,52,,39,40,13,17.5,細懸浮微粒,2026/03/26 19:00:00,46,臺南,0.5,1,普通,0,3.1
97,0.3,0.3,高雄市,22.883583,120.530542,0.6,5,5.7,61,69,31,34,14,16.3,臭氧八小時,2026/03/26 19:00:00,47,美濃,0.9,0,普通,330,0.9
74,0.34,0.3,高雄市,22.757506,120.305689,0.5,8,9,56,62,31,36,19,20.7,臭氧八小時,2026/03/26 19:00:00,48,橋頭,1.4,1,普通,352,2
97,0.35,0.3,高雄市,22.689056,120.332631,1.4,13,15.3,60,69,38,38,24,17.1,臭氧八小時,2026/03/26 19:00:00,49,仁武,1.3,1,普通,337,2.1
67,0.61,0.4,高雄市,22.628126,120.357422,0.8,12,13.8,56,60,34,34,18,16.5,臭氧八小時,2026/03/26 19:00:00,50,鳳山,0.9,1,普通,254,0.9
69,0.35,0.4,高雄市,22.56413611,120.425311,0.8,8,9.2,58,56,39,43,18,19,細懸浮微粒,2026/03/26 19:00:00,51,大寮,0.3,1,普通,310,1.6
71,0.3,0.3,高雄市,22.4795,120.41175,1.5,3,5.4,52,61,29,33,11,15.1,臭氧八小時,2026/03/26 19:00:00,52,林園,0.5,0,普通,306,3
84,0.34,0.3,高雄市,22.733667,120.328289,0.9,8,9.4,60,65,37,45,15,16.7,臭氧八小時,2026/03/26 19:00:00,53,楠梓,1.2,1,普通,0,1.8
100,0.33,0.3,高雄市,22.674861,120.292917,0.5,6,6.9,64,70,36,38,14,17.2,臭氧八小時,2026/03/26 19:00:00,54,左營,0.7,1,普通,317,2
93,0.31,0.3,高雄市,22.63390278,120.28676111,0.4,7,7.4,67,68,36,33,10,13.3,臭氧八小時,2026/03/26 19:00:00,56,前金,0.7,0,普通,348,3
90,0.38,0.3,高雄市,22.6044507,120.30833356,1.5,8,10,63,67,34,48,16,16.5,臭氧八小時,2026/03/26 19:00:00,57,前鎮,0.1,0,普通,1,2.2
77,0.31,0.3,高雄市,22.565833,120.337736,0,9,9.2,61,63,38,39,14,16.1,臭氧八小時,2026/03/26 19:00:00,58,小港,0.8,,普通,294,2.3
97,0.34,0.3,屏東縣,22.673081,120.488033,0.5,7,8.1,61,69,35,35,13,15.5,臭氧八小時,2026/03/26 19:00:00,59,屏東,0.7,1,普通,304,2.3
80,0.32,0.3,屏東縣,22.523108,120.561175,0.8,7,8.4,61,64,38,31,16,13.2,臭氧八小時,2026/03/26 19:00:00,60,潮州,0.7,1,普通,302,3
49,0.24,0.2,屏東縣,21.958069,120.788928,0.5,1,1.8,47,53,19,14,9,8.5,,2026/03/26 19:00:00,61,恆春,0.7,0,良好,45,3.1
36,0.4,0.3,臺東縣,22.755358,121.15045,2,9,11.1,34,39,6,11,8,7,,2026/03/26 19:00:00,62,臺東,0.8,0,良好,354,0.5
53,0.38,0.3,花蓮縣,23.971306,121.599769,0.5,10,10.5,43,50,21,31,14,13.3,細懸浮微粒,2026/03/26 19:00:00,63,花蓮,0.7,1,普通,354,0.9
45,0.17,0.1,臺北市,25.182722,121.529583,0.2,3,3.6,36,49,15,22,11,10.1,,2026/03/26 19:00:00,64,陽明,1.1,1,良好,,
54,0.23,0.2,宜蘭縣,24.747917,121.746394,0.5,5,6,48,56,36,31,17,13.4,臭氧八小時,2026/03/26 19:00:00,65,宜蘭,1,0,普通,332,1.3
61,0.26,0.2,宜蘭縣,24.632203,121.792928,0.4,6,6.5,41,52,49,40,25,15.5,懸浮微粒,2026/03/26 19:00:00,66,冬山,1.3,1,普通,209,0.6
62,1.02,0.8,新北市,25.072611,121.493806,29,39,68.1,18,21,34,33,18,14.1,二氧化氮,2026/03/26 19:00:00,67,三重,1.4,1,普通,-,-
65,1.23,0.7,桃園市,24.953278,121.221667,26.8,44,70.9,9,24,42,39,15,15.8,二氧化氮,2026/03/26 19:00:00,68,中壢,1.7,1,普通,295,0.2
100,0.31,0.3,南投縣,23.756389,120.677306,0.2,10,10.6,52,70,42,50,21,24.8,臭氧八小時,2026/03/26 19:00:00,69,竹山,2.7,1,普通,321,0.9
54,0.56,0.3,新北市,25.017,121.516306,3.9,22,26.8,31,43,23,27,16,13.6,細懸浮微粒,2026/03/26 19:00:00,70,永和,0.7,0,普通,78,1
84,0.44,0.3,高雄市,22.608711,120.312017,1.4,9,10.5,61,65,38,45,17,18,臭氧八小時,2026/03/26 19:00:00,71,復興,1.1,1,普通,274,1.6
78,0.33,0.3,南投縣,23.968842,120.967903,0.8,5,6.5,49,57,40,41,17,22.5,細懸浮微粒,2026/03/26 19:00:00,72,埔里,1.7,1,普通,140,2.4
86,0.37,0.3,連江縣,26.153736,119.952724,0.3,10,11.1,48,51,36,37,25,25.2,細懸浮微粒,2026/03/26 19:00:00,75,馬祖,1,0,普通,122,0.5
87,0.37,0.2,金門縣,24.432133,118.312256,0.4,8,9.3,54,66,33,36,12,18.4,臭氧八小時,2026/03/26 19:00:00,77,金門,0.7,0,普通,107,1.6
77,0.21,0.2,澎湖縣,23.569031,119.566158,0.5,3,4,58,63,39,39,20,17.5,臭氧八小時,2026/03/26 19:00:00,78,馬公,0.4,0,普通,50,3.5
37,0.26,0.2,臺東縣,23.045083,121.161933,0.6,4,4.8,40,40,4,3,7,5.6,,2026/03/26 19:00:00,80,關山,0.8,0,良好,172,0.9
87,0.18,0.2,雲林縣,23.753506,120.251825,1.7,1,3.7,55,66,46,44,20,18,臭氧八小時,2026/03/26 19:00:00,83,麥寮,1.1,1,普通,3,2.7
74,0.1,0.1,新北市,25.29681695,121.53656894,0,1,1.1,57,62,23,23,11,10.7,臭氧八小時,2026/03/26 19:00:00,84,富貴角,0.2,0,普通,103,5.1
97,0.14,0.2,彰化縣,23.85493056,120.26964167,1.2,1,2.6,60,69,37,37,17,17.5,臭氧八小時,2026/03/26 19:00:00,85,大城,0.4,1,普通,35,3
74,0.76,0.6,臺中市,24.1589,120.6567111,21.6,28,50.1,40,60,43,43,17,21,細懸浮微粒,2026/03/26 19:00:00,88,臺灣大道,0.7,1,普通,343,1.2
93,0.23,0.3,彰化縣,23.9615945,120.5631893,1.2,8,9.6,51,68,39,43,15,21,臭氧八小時,2026/03/26 19:00:00,139,員林,1.6,2,普通,33,1.2
69,0.53,0.4,臺南市,22.98522502,120.22216042,2.5,12,15.4,49,60,46,40,18,19,細懸浮微粒,2026/03/26 19:00:00,140,林森,0.4,1,普通,73,1.7
84,0.26,0.3,南投縣,23.71867609,120.7944772,0.4,6,6.8,50,62,34,46,22,24.4,細懸浮微粒,2026/03/26 19:00:00,203,南投（鹿谷）,0.8,1,普通,271,0.3
58,0.27,0.2,屏東縣,22.35222,120.37722,0.8,2,3.7,52,57,20,24,9,10.3,臭氧八小時,2026/03/26 19:00:00,204,屏東（琉球）,0.2,0,普通,182,0.7
54,0.46,0.3,新北市,24.94902778,121.38352778,6.1,27,33.8,31,44,26,27,15,13.7,細懸浮微粒,2026/03/26 19:00:00,311,新北（樹林）,0.9,0,普通,116,0.5
51,0.28,0.3,屏東縣,22.260899,120.651472,0.2,2,3.1,51,55,17,17,4,7.5,臭氧八小時,2026/03/26 19:00:00,313,屏東（枋山）,0.1,0,普通,106,2.9
